City_ID,City,Country,Max Temp,Current Description,Lat,Lng,Hotel Name
0,Victoria,HK,84.38,overcast clouds,22.2855,114.1577,Mini Central
1,Jamestown,US,79.02,overcast clouds,42.097,-79.2353,Hampton Inn & Suites Jamestown
2,Kapaa,US,80.58,overcast clouds,22.0752,-159.319,Sheraton Kauai Coconut Beach Resort
3,Matara,LK,79.93,clear sky,5.9485,80.5353,Amaloh Boutique Resort
4,Palmer,US,86.5,scattered clouds,42.1584,-72.3287,Wedgewood Motel
5,Puerto Ayora,EC,78.76,broken clouds,-0.7393,-90.3518,Finch Bay Galapagos Hotel
6,Athens,GR,86.25,clear sky,37.9795,23.7162,Safestay Athens
7,Hami,CN,81.64,overcast clouds,42.8,93.45,Laoyutang Resort
8,Arraial Do Cabo,BR,78.76,clear sky,-22.9661,-42.0278,Pousada Porto Praia
9,Itoman,JP,78.82,mist,26.1247,127.6694,Southern Beach Hotel & Resort Okinawa
10,Lorengau,PG,81.57,scattered clouds,-2.0226,147.2712,Lorengau Harbourside Hotel
12,Lalmohan,BD,82.22,broken clouds,22.3384,90.7419,Arifur Rahman Miraj
13,Tricase,IT,86.32,clear sky,39.9304,18.3553,Hotel Adriatico
14,Sinnamary,GF,82.18,broken clouds,5.3833,-52.95,ALETHEIA Appartement Sinnamary
15,Bethel,US,86.65,overcast clouds,41.3712,-73.414,Courtyard by Marriott Danbury
16,Saharsa,IN,83.3,overcast clouds,25.8833,86.6,SPOT ON 61627 Golden Plaza SPOT
17,Gizo,SB,81.43,clear sky,-8.103,156.8419,Imagination Island
18,Malvern,US,87.35,light rain,34.3623,-92.813,Americas Best Value Inn Malvern
19,Hithadhoo,MV,83.86,light rain,-0.6,73.0833,Scoop Guest House
20,Maebaru,JP,82.08,overcast clouds,33.55,130.2,Guest house Kotonoha
21,Namatanai,PG,78.39,scattered clouds,-3.6667,152.4333,Seagulls Inn Namatani
22,Vila Velha,BR,82.35,scattered clouds,-20.3297,-40.2925,Hotel Vitória Palace
23,Ouro Preto Do Oeste,BR,86.65,overcast clouds,-10.7481,-62.2158,Graúna Resort Hotel
24,Samarai,PG,80.22,few clouds,-10.6167,150.6667,Nuli Sapi
25,Unai,BR,84.83,clear sky,-16.3575,-46.9061,Hotel Regente
26,Saint-Francois,FR,80.04,clear sky,46.4154,3.9054,Manoir Du Bonheur
28,Komsomolskiy,UZ,82.36,clear sky,40.4272,71.7189,Ikathouse
29,Morro Bay,US,81.72,few clouds,35.3658,-120.8499,Inn at Morro Bay
30,Laguna,US,79.14,few clouds,38.421,-121.4238,"Holiday Inn Express & Suites Elk Grove Central - Hwy 99, an IHG Hotel"
31,George Town,MY,84.13,light rain,5.4112,100.3354,Cititel Penang
33,Douglas,US,81.55,clear sky,41.3,-96.167,Hilton Garden Inn Omaha West
34,Acajutla,SV,83.66,overcast clouds,13.5928,-89.8275,Laureles
35,Chitral,PK,80.44,clear sky,35.8462,71.7858,PTDC Motel Chitral
36,Maumere,ID,79.12,light rain,-8.6199,122.2111,Sylvia Hotel
37,Nabinagar,BD,78.91,broken clouds,23.8917,90.9733,ওমান হাউজ
38,Davila,PH,82.31,overcast clouds,18.4726,120.5763,Blue Ridge Beach Resort
39,Aklavik,CA,80.67,few clouds,68.2191,-135.0107,Aklavik Inn
41,La Rioja,ES,85.78,light rain,42.25,-2.5,Casa Concejos
42,Ambon,ID,79.23,light rain,-3.6954,128.1814,Swiss-Belhotel Ambon
43,Bairiki,KI,80.65,light rain,1.3292,172.9752,Tarawa Boutique Hotel
44,Georgetown,MY,84.13,light rain,5.4112,100.3354,Cititel Penang
45,Bathsheba,BB,85.05,light rain,13.2167,-59.5167,Atlantis Hotel
46,Kirakira,SB,80.38,light rain,-10.4544,161.9205,SanBiz Lodge
47,Hirara,JP,83.59,light rain,24.8,125.2833,Hotel Atoll Emerald Miyakojima
48,Alghero,IT,78.89,clear sky,40.5589,8.3181,Smy Carlos V Alghero
49,Mattawa,US,87.01,scattered clouds,46.7379,-119.9028,Sun & Sand Mobile Home Park
50,Spring Hill,US,85.84,heavy intensity rain,28.4769,-82.5255,Millennium Suites Llc
51,Berlevag,NO,80.6,clear sky,70.8578,29.0864,Kvitbrakka
52,Kavieng,PG,82.11,light rain,-2.5744,150.7967,Nusa Island Retreat
53,Banda Aceh,ID,81.32,overcast clouds,5.5577,95.3222,OYO 884 Rumoh PMI Hotel
54,Kieta,PG,78.04,scattered clouds,-6.2167,155.6333,Uruna Bay Retreat
55,Richmond Heights,US,82.42,clear sky,41.5528,-81.5101,American Motel
57,Weligama,LK,79.81,light rain,5.9667,80.4167,Weligama Bay Resort
58,Lander,US,82.11,clear sky,42.833,-108.7307,"Holiday Inn Express & Suites Lander, an IHG Hotel"
60,Seoni Malwa,IN,80.29,overcast clouds,22.45,77.4667,hotel naman residency
61,Madhupur,IN,83.8,overcast clouds,24.25,86.65,Hotel Kumar International
63,Sola,VU,81.18,light rain,-13.8833,167.55,Leumerus Bungalows
64,Manga,BF,84.85,broken clouds,11.6636,-1.0731,Auberge du 11 décembre de la cité CNSS à Manga
65,Singapore,SG,80.51,broken clouds,1.2897,103.8501,The Fullerton Hotel Singapore
66,Cayenne,GF,86.04,broken clouds,4.9333,-52.3333,Hôtel Le Dronmi
67,Ranaghat,IN,81.21,broken clouds,23.1833,88.5833,Pole Star Caterer
68,Cockburn Town,TC,81.77,few clouds,21.4612,-71.1419,Osprey Beach Hotel
69,Sungairaya,ID,79.36,light rain,0.7,108.9,Rumah Kuku Moimoi Shelly
70,Carbonia,IT,79.02,clear sky,39.1672,8.5222,Lu 'Hotel
71,Butaritari,KI,82.98,overcast clouds,3.0707,172.7902,Isles Sunset Lodge
72,Satao,PT,81.03,clear sky,40.7418,-7.7329,Centro de Cuidados Continuados
73,Hingoli,IN,79.16,moderate rain,19.7167,77.15,Hotel RW International
74,Faanui,PF,78.85,few clouds,-16.4833,-151.75,Bora-Bora Pearl Beach Resort & Spa
75,Loreto,MX,79.36,overcast clouds,22.2667,-101.9667,José de Jesús Velásquez mora
76,Broome,US,79.92,few clouds,42.2506,-75.833,Chenango Valley State Park
77,Nalchiti,BD,80.87,overcast clouds,22.6333,90.2833,Al Madina plazza
78,Mata,PT,86.59,clear sky,40.683,-7.4592,Hostel EntryFik
79,Havelock,US,82.35,overcast clouds,34.8791,-76.9013,Sherwood Motel
80,Gushikawa,JP,78.03,light rain,26.3544,127.8686,Kirari Guest House
81,Nishihara,JP,78.08,mist,26.1842,127.7558,Minshuku Agaihama
82,Mehamn,NO,80.55,few clouds,71.0357,27.8492,Mehamn Arctic Hotel AS
83,Auki,SB,78.35,broken clouds,-8.7676,160.7034,Auki Motel
84,Sao Joao De Pirabas,BR,81.07,broken clouds,-0.7747,-47.1772,POUSADA SOL E MAR
85,Baghdad,IQ,87.71,clear sky,33.3406,44.4009,Baghdad Hotel
86,Road Town,VG,84.24,scattered clouds,18.4167,-64.6167,"ZINGARA 76ft Catamaran, full crew-all included"
87,Teshie,GH,78.08,overcast clouds,5.5836,-0.1072,Best Western Plus Accra Beach Hotel
88,Salalah,OM,84.29,overcast clouds,17.0151,54.0924,"HAMDAN PLAZA HOTEL SALALAH, an HTG Hotel"
89,Bandarbeyla,SO,79.41,overcast clouds,9.4942,50.8122,JABIR HOTEL
90,Touros,BR,79.81,few clouds,-5.1989,-35.4608,INN NEW HORIZON
91,Fort Wellington,GY,83.5,overcast clouds,6.4,-57.6,TE'AMO Entertainment Park
92,Iracoubo,GF,81.21,light rain,5.4802,-53.2011,Le Gîte d’Iracoubo
93,Hambantota,LK,79.14,few clouds,6.1241,81.1185,Bungalow 63
94,Birjand,IR,82.67,scattered clouds,32.8663,59.2211,Birjand Tourist Hotel
95,Kahului,US,80.62,scattered clouds,20.8947,-156.47,Maui Seaside Hotel
96,Santa,PH,84.02,light rain,17.486,120.4348,Monte Leah Beach Resort
97,Huilong,CN,78.93,overcast clouds,31.8111,121.655,Hilton Garden Inn Qidong
98,Asau,RO,78.96,overcast clouds,46.4333,26.4,Casa Mika Ciobanus
99,La Asuncion,VE,83.71,few clouds,11.0333,-63.8628,Colinas de Matasiete
100,San Policarpo,PH,82.51,overcast clouds,12.1791,125.5072,Agapita M. Nicart
101,Makakilo City,US,82.72,clear sky,21.3469,-158.0858,Marriott's Ko Olina Beach Club
102,Miranda,CO,83.64,overcast clouds,3.2499,-76.2281,unidiversidad organica la utopia
103,Narasannapeta,IN,81.0,overcast clouds,18.4167,84.05,AVK events and catering
104,Madras,IN,87.78,mist,13.0878,80.2785,"Taj Connemara, Chennai"
105,Bacolod,PH,78.91,overcast clouds,10.6667,122.95,Planta Hotel & Residences
106,Miracatu,BR,82.56,clear sky,-24.2814,-47.4597,Hotel Van Monet
107,Acapulco,MX,87.62,scattered clouds,16.8634,-99.8901,HS Hotsson Smart Acapulco
108,Jaque,PA,81.73,light rain,7.5175,-78.1703,Aventuras Jaque S.A
109,Puerto El Triunfo,SV,82.78,overcast clouds,13.2833,-88.55,Hotel Jardin
110,Garden City,US,86.25,few clouds,42.3256,-83.331,Big Trees Mobile Home Community
111,Nibong Tebal,MY,84.18,moderate rain,5.1659,100.4779,K Garden Hotel Parit Buntar
112,Isla Aguada,MX,87.84,clear sky,18.7833,-91.4667,Freedom Shores
113,Benghazi,LY,80.28,clear sky,32.1167,20.0667,Tibesti Hotel
114,Fukue,JP,79.16,overcast clouds,32.6881,128.8419,Goto Guesthouse Utojuku & SA Car Rental
115,San Cristobal,VE,84.38,overcast clouds,7.7669,-72.225,Pirineos
116,Mazagao,BR,84.52,broken clouds,-0.115,-51.2894,Recanto dos Ferreiras
117,Trairi,BR,79.54,overcast clouds,-3.2778,-39.2689,janelas do mar
118,Aguadilla,PR,87.91,clear sky,18.4275,-67.1541,WSSM Surf House
119,Ranot,TH,80.82,overcast clouds,7.7777,100.3213,Pakbanglake resort ปากบางเลค รีสอร์ท
120,Griffith,US,87.12,clear sky,41.5284,-87.4237,Apartment above Depot Bar
121,Trincomalee,LK,80.49,clear sky,8.5711,81.2335,Welcombe Hotel
122,Bahadurganj,IN,81.32,overcast clouds,26.2667,87.8167,Usmania Cottage
123,Manati,PR,87.87,light rain,18.4275,-66.4921,Manati World Point Inn
124,Salinopolis,BR,81.97,few clouds,-0.6136,-47.3561,Salinas Park Resort Maçarico AP101
125,Tel Aviv-Yafo,IL,80.11,clear sky,32.0805,34.7805,Ben Yehuda apartments
126,Kulhudhuffushi,MV,79.63,overcast clouds,6.6221,73.07,Haajy Guest House 1
127,Megalopoli,GR,78.4,clear sky,37.4011,22.1422,Leto Hotel
128,Bonthe,SL,78.1,overcast clouds,7.5264,-12.505,Bonthe Holiday Village
129,Barcelos,PT,83.91,clear sky,41.5388,-8.6151,Hotel Restaurante Bagoeira
130,Caarapo,BR,85.57,clear sky,-22.6342,-54.8222,Hotel Pousada Quinta do Sul
131,Soria,ES,78.12,broken clouds,41.6667,-2.6667,Casa Rural Sierra de Inodejo
132,Altoona,US,85.8,broken clouds,40.5187,-78.3947,Cedar Grove Motel
133,Netrakona,BD,80.22,light rain,24.8833,90.7167,সিয়াম ছাত্রাবাস
134,Ejido,VE,78.51,broken clouds,8.5514,-71.2375,Bora Bora Nails & Spa C.A.
135,Bubaque,GW,80.67,overcast clouds,11.2833,-15.8333,"Casa Dora, Bubaque"
136,Surt,LY,80.64,clear sky,31.2089,16.5887,الهادي ابوشعاله سرت
137,Kantang,TH,78.44,overcast clouds,7.4054,99.5156,Reng Ta Chai Boutique HomeStay
138,Basco,PH,84.45,moderate rain,20.4487,121.9702,Nathaniel's Lodge
139,Finschhafen,PG,78.67,broken clouds,-6.6024,147.8681,Cossam Guest House
140,Boffa,GN,81.5,overcast clouds,10.1667,-14.0333,Hôtel Niara Belly
141,Natal,BR,81.25,broken clouds,-5.795,-35.2094,Villa Park Hotel | Natal
142,Damietta,EG,78.93,clear sky,31.4165,31.8133,SULIMAN INN
143,Irece,BR,81.61,clear sky,-11.3042,-41.8558,Hotel Copa 70
144,Kavaratti,IN,82.33,overcast clouds,10.5669,72.642,Hotels in Lakshadweep Islands
146,Palasa,IN,80.46,overcast clouds,18.7667,84.4167,Balaji tifen & meals veg & non veg hotel
147,Villa De Reyes,MX,82.6,broken clouds,21.8,-100.9333,HOTEL MARIA NATALIA
148,Turiacu,BR,80.58,few clouds,-1.6633,-45.3717,Pousada Maranata
149,Nauta,PE,81.73,overcast clouds,-4.5061,-73.5757,Amazon Exploring Expedition - Eretzen Tá Lodge
150,Tual,ID,80.46,overcast clouds,-5.6667,132.75,Grand Vilia Hotel
151,Mahibadhoo,MV,81.81,moderate rain,3.7833,72.9667,Omadhoo Inn
152,Nanzhou,CN,78.24,overcast clouds,29.3596,112.4024,兴禹国际大酒店
153,Pocosol,CR,79.9,overcast clouds,10.3667,-84.6167,Heliconias Nature Lodge
154,Narayanganj,BD,87.82,light rain,23.6233,90.5011,BIMT Old Hostel
155,Sao Geraldo Do Araguaia,BR,85.01,overcast clouds,-6.4006,-48.555,Hotel Por do Sol
156,Juazeiro,BR,81.61,light rain,-9.4117,-40.4986,JB Hotel
157,Rock Sound,BS,81.59,overcast clouds,24.9,-76.2,Pink Corral Bay Property
158,Kano,NG,84.99,few clouds,12.0001,8.5167,Royal Tropicana Hotel
159,Ziniare,BF,81.52,moderate rain,12.5822,-1.2983,Privilège Hôtel de Ziniaré
160,Non Sang,TH,78.33,overcast clouds,16.8687,102.5664,Sabaidee@Home Nonsang
161,Suez,EG,80.92,clear sky,29.9737,32.5263,Green House
162,Cedar City,US,86.97,clear sky,37.6775,-113.0619,Hampton Inn Cedar City
163,Ramgarh,IN,82.83,overcast clouds,23.6333,85.5167,HOTEL TREAT RESIDENCY
164,Frutal,BR,87.46,clear sky,-20.0247,-48.9406,Hotel Recanto Dos Ipês
165,Umm Lajj,SA,85.77,clear sky,25.0213,37.2685,Moon light Furnished Units
166,Alibag,IN,82.47,overcast clouds,18.6411,72.8792,"Radisson Blu Resort & Spa - Alibaug, India"
167,Fuyang,CN,80.6,overcast clouds,32.9,115.8167,Fuyang Wanda Realm Hotel
